{
  "baseHourlyWagePayItemId": 2,
  "baseSalaryWagePayItemId": 1,
  "employeePays": [
    {
      "employeeId": 21,
      "name": "Mary Jones",
      "daysPaid": 5,
      "gross": 1500,
      "paye": 100,
      "takeHomePay": 700,
      "kiwiSaver": 150,
      "payLines": [
        {
          "payItemId": 1,
          "payItemName": "Salary Wage",
          "type": "Earnings",
          "amount": "100000.00",
          "hours": "0.00"
        },
        {
          "payItemId": 2,
          "payItemName": "Hourly Wage",
          "type": "Earnings",
          "amount": "20000",
          "hours": "38.50"
        },
        {
          "payItemId": 2,
          "name": "Holiday pay",
          "type": "Earnings",
          "amount": "97.280",
          "quantity": "0.00",
          "rate": "8.00",
          "calculationType": "Percentage"
        },
        {
          "payItemId": 3,
          "payItemName": "Annual leave",
          "type": "Earnings",
          "amount": "0.00",
          "hours": "0.00"
        },
        {
          "payItemId": 4,
          "payItemName": "Sick leave",
          "type": "Earnings",
          "amount": "0.00",
          "hours": "0.00"
        },
        {
          "payItemId": 6,
          "payItemName": "Superannuation deduction before tax",
          "type": "SuperannuationDeductionBeforeTax",
          "amount": "200.00",
          "hours": "0.00"
        },
        {
          "payItemId": 7,
          "payItemName": "Superannuation deduction after tax",
          "type": "SuperannuationDeductionAfterTax",
          "amount": "100.00",
          "hours": "0.00"
        },
        {
          "payItemId": 8,
          "payItemName": "Random deduction",
          "type": "Deduction",
          "amount": "5000.00",
          "hours": "0.00"
        },
        {
          "payItemId": 9,
          "payItemName": "Annual leave accrual",
          "type": "Entitlement",
          "amount": "0.00",
          "hours": "30.00"
        },
        {
          "payItemId": 10,
          "payItemName": "Sick leave accrual",
          "type": "Entitlement",
          "amount": "0.00",
          "hours": "30.00"
        }
      ]
    },
    {
      "employeeId": 22,
      "name": "John Smith",
      "daysPaid": 4,
      "gross": 2250.55,
      "paye": 125,
      "takeHomePay": 1005.15,
      "kiwiSaver": 200,
      "payLines": [
        {
          "payItemId": 21,
          "payItemName": "Salary Wage",
          "type": "Earnings",
          "amount": "200000.00",
          "hours": "0.00"
        },
        {
          "payItemId": 22,
          "payItemName": "Hourly Wage",
          "type": "Earnings",
          "amount": "0.00",
          "hours": "100.50"
        },
        {
          "payItemId": 44,
          "payItemName": "Annual Leave",
          "type": "Entitlement",
          "amount": "0.00",
          "hours": "50.00"
        },
        {
          "payItemId": 668,
          "payItemName": "Employee Contribution 3%",
          "type": "KiwiSaver",
          "amount": "5.18",
          "hours": "0.00"
        },
        {
          "payItemId": 662,
          "payItemName": "Employer Contribution 3%",
          "type": "KiwiSaver",
          "amount": "4.66",
          "hours": "0.00"
        },
        {
          "payItemId": 663,
          "payItemName": "Employer superannuation contribution tax (ESCT) 10.5%",
          "type": "KiwiSaver",
          "amount": "1000000.00",
          "hours": "0.52"
        },
        {
          "payItemId": 77,
          "payItemName": "PayGWithholding",
          "type": "Taxes",
          "amount": "222333.00",
          "hours": "0.00"
        }
      ]
    }
  ]
}
